latitude,longitude,Location,Cult,Image
-123.089996,44.049999,"Eugene, OR","Church of God, the Eternal",http://silenced.co/wp-content/uploads/2012/03/coge.bmp
6.633597,46.519962,"Lausanne, Switzerland","Church of God, the Eternal",http://silenced.co/wp-content/uploads/2012/03/coge.bmp
120.43576,15.94411,"Pangasinan, Philippines","Church of God, the Eternal",http://silenced.co/wp-content/uploads/2012/03/coge.bmp
123.303406,8.49613,"Mindanao, Philippines","Church of God, the Eternal",http://silenced.co/wp-content/uploads/2012/03/coge.bmp
34.457256,-1.093774,"Suna, Philippines","Church of God, the Eternal",http://silenced.co/wp-content/uploads/2012/03/coge.bmp
